City_ID,City,Lat,Lng,Max Temp,Humidity,Cloudiness,Wind Speed,Country,Date
0,puerto natales,-51.7236,-72.4875,6.93,98,100,0.26,CL,1682308820
1,west island,-12.1568,96.8225,28.99,79,40,6.17,CC,1682308820
2,bethel,41.3712,-73.414,9.72,86,13,2.04,US,1682308820
3,grytviken,-54.2811,-36.5092,1.36,81,70,9.24,GS,1682308820
4,enewetak,11.3474,162.3373,26.85,84,99,8.24,MH,1682308820
5,avarua,-21.2078,-159.775,26.03,65,56,3.09,CK,1682308820
6,broome,42.2506,-75.833,4.92,95,99,0.89,US,1682308820
7,san agustin de valle fertil,-30.6335,-67.4682,12.82,86,67,0.82,AR,1682308821
8,gaalkacyo,6.7697,47.4308,26.64,75,64,3.31,SO,1682308821
9,hirna,9.2167,41.1,18.17,76,94,0.8,ET,1682308821
10,keflavik,64.0049,-22.5624,2.24,80,75,1.03,IS,1682308822
11,adamstown,-25.066,-130.1015,24.68,88,97,7.82,PN,1682308822
12,aasiaat,68.7098,-52.8699,-1.25,99,100,1.7,GL,1682308822
13,altay,47.8667,88.1167,8.81,42,96,2.14,CN,1682308607
14,ushuaia,-54.8,-68.3,2.34,94,100,2.25,AR,1682308822
15,waitangi,-43.9535,-176.5597,11.01,81,100,1.34,NZ,1682308822
16,thompson,55.7435,-97.8558,-10.98,97,57,1.25,CA,1682308823
17,shingu,33.7333,135.9833,16.37,38,100,3.86,JP,1682308543
18,sinabang,2.4803,96.3801,28.7,77,100,2.11,ID,1682308823
19,longyearbyen,78.2186,15.6401,-11.37,89,82,0.85,SJ,1682308824
20,zhezqazghan,47.7833,67.7667,15.32,51,0,4.0,KZ,1682308824
21,nemuro,43.3236,145.575,3.96,77,98,3.01,JP,1682308800
22,villamontes,-21.25,-63.5,19.5,89,100,0.75,BO,1682308824
23,talnakh,69.4865,88.3972,1.23,83,91,3.82,RU,1682308824
24,cam ranh,11.9214,109.1591,31.98,62,20,4.63,VN,1682308559
25,papatowai,-46.5619,169.4708,12.01,65,56,8.0,NZ,1682308825
26,albany,42.6001,-73.9662,5.76,84,100,6.71,US,1682308825
27,tharad,24.3961,71.6267,32.87,10,15,0.8,IN,1682308825
28,wailua homesteads,22.0669,-159.378,25.24,89,100,4.12,US,1682308825
29,khalkhal,37.6189,48.5258,13.06,52,87,1.24,IR,1682308826
30,yellowknife,62.456,-114.3525,5.29,65,20,2.06,CA,1682308749
31,xianyang,34.3378,108.7026,4.54,94,100,0.31,CN,1682308826
32,petropavlovsk-kamchatsky,53.0452,158.6483,4.33,48,75,5.0,RU,1682308825
33,utrik,11.2278,169.8474,26.97,82,34,9.15,MH,1682308827
34,nar'yan-mar,67.6713,53.087,-6.0,90,22,7.25,RU,1682308827
35,biltine,14.5333,20.9167,29.97,19,96,4.05,TD,1682308827
36,ribeira grande,38.5167,-28.7,17.65,97,100,7.6,PT,1682308828
37,xining,36.6167,101.7667,6.63,69,100,0.45,CN,1682308828
38,yamada,39.4667,141.95,12.01,34,98,5.71,JP,1682308567
39,le port,-20.9373,55.2919,26.61,84,19,3.52,RE,1682308829
40,edinburgh of the seven seas,-37.0676,-12.3116,14.28,67,78,10.63,SH,1682308829
41,mtsamboro,-12.6998,45.0689,26.62,77,85,3.46,YT,1682308829
42,gadzhiyevo,69.2551,33.3362,-5.23,86,26,4.78,RU,1682308829
43,jamestown,42.097,-79.2353,3.73,87,100,3.09,US,1682308830
44,lazaro cardenas,17.9583,-102.2,24.19,79,43,1.24,MX,1682308830
45,grand falls-windsor,48.9332,-55.6649,1.39,94,100,1.79,CA,1682308830
46,salavan,15.7167,106.4167,36.1,37,96,1.53,LA,1682308830
47,bubaque,11.2833,-15.8333,26.32,62,12,4.85,GW,1682308830
48,afaahiti,-17.75,-149.2833,25.93,88,100,5.12,PF,1682308831
49,juegang,32.3174,121.1855,11.57,83,100,6.56,CN,1682308831
50,mar del plata,-38.0023,-57.5575,16.08,93,100,0.0,AR,1682308793
51,olinda,-8.0089,-34.8553,25.52,82,98,4.14,BR,1682308831
52,port-aux-francais,-49.35,70.2167,4.34,61,97,14.64,TF,1682308831
53,susuman,62.7833,148.1667,-3.0,75,100,7.55,RU,1682308832
54,haiku-pauwela,20.9219,-156.3051,25.02,77,82,3.13,US,1682308832
55,dolores,-36.3132,-57.6792,13.5,95,90,2.34,AR,1682308832
56,marsa alam,25.0757,34.8918,24.99,49,3,4.98,EG,1682308832
57,garoowe,8.4054,48.4845,24.66,75,22,2.39,SO,1682308832
58,college,64.8569,-147.8028,-7.45,62,100,6.17,US,1682308833
59,callao,-12.0667,-77.15,24.29,77,20,3.71,PE,1682308834
60,hermanus,-34.4187,19.2345,18.11,93,100,3.67,ZA,1682308834
61,weno,7.4515,151.8468,28.63,76,100,3.79,FM,1682308834
62,yaring,6.8662,101.3689,31.48,60,99,3.71,TH,1682308834
63,nanga eboko,4.6833,12.3667,20.6,97,83,0.76,CM,1682308835
64,glace bay,46.1969,-59.957,2.21,91,0,1.79,CA,1682308835
65,isafjordur,66.0755,-23.124,0.3,61,86,2.92,IS,1682308835
66,bilibino,68.0546,166.4372,0.85,77,2,2.47,RU,1682308835
67,diego de almagro,-26.3667,-70.05,13.67,69,0,1.06,CL,1682308835
68,lebu,-37.6167,-73.65,11.12,87,5,4.04,CL,1682308836
69,sakaiminato,35.55,133.2333,11.85,51,100,7.6,JP,1682308829
70,port alfred,-33.5906,26.891,21.72,60,100,2.36,ZA,1682308836
71,langnau am albis,47.2888,8.5411,10.06,80,100,3.6,CH,1682308836
72,chibougamau,49.9168,-74.3659,2.79,93,100,2.57,CA,1682308836
73,joinville,-26.3044,-48.8456,16.99,98,11,0.94,BR,1682308836
74,port mathurin,-19.6833,63.4167,26.22,80,19,8.76,MU,1682308837
75,sao miguel do araguaia,-13.275,-50.1628,22.26,76,80,1.8,BR,1682308837
76,awjilah,29.1081,21.2869,21.71,30,0,4.66,LY,1682308837
77,puerto ayora,-0.7393,-90.3518,25.86,91,45,1.34,EC,1682308837
78,oltinko'l,40.8011,72.1634,24.0,22,58,2.0,UZ,1682308837
79,paracuru,-3.41,-39.0306,25.62,85,86,3.58,BR,1682308837
80,ndioum,16.5129,-14.6471,25.62,30,0,4.06,SN,1682308838
81,udachny,66.4167,112.4,-3.06,80,80,1.29,RU,1682308839
82,iqaluit,63.7506,-68.5145,0.39,99,100,1.34,CA,1682308813
83,invercargill,-46.4,168.35,11.68,82,90,0.89,NZ,1682308824
84,kailua-kona,19.6406,-155.9956,25.84,81,66,1.34,US,1682308839
85,qaqortoq,60.7167,-46.0333,0.2,83,96,1.42,GL,1682308839
86,calvinia,-31.4707,19.776,15.81,82,100,1.96,ZA,1682308840
87,cockburn town,21.4612,-71.1419,25.29,72,2,3.27,TC,1682308840
88,orshanka,56.9161,47.8933,11.59,60,64,2.98,RU,1682308840
89,chui,-33.6971,-53.4616,17.19,95,60,2.46,UY,1682308840
90,balsas,-7.5325,-46.0356,22.72,67,97,0.81,BR,1682308841
91,kruisfontein,-34.0033,24.7314,17.16,79,100,2.25,ZA,1682308841
92,nantucket,41.2835,-70.0995,11.08,97,100,2.57,US,1682308841
93,olonkinbyen,70.9221,-8.7187,-4.83,77,92,7.86,SJ,1682308842
94,namibe,-15.1961,12.1522,24.06,69,27,3.57,AO,1682308842
95,howrah,22.5892,88.3103,31.0,66,40,0.0,IN,1682308842
96,margate,51.3813,1.3862,8.16,82,89,3.58,GB,1682308842
97,mutum biyu,8.6333,10.7667,25.93,77,100,1.67,NG,1682308842
98,prado,-17.3411,-39.2208,24.19,76,96,4.54,BR,1682308843
99,malkapur,20.8833,76.2,33.36,14,6,2.4,IN,1682308843
100,atafu village,-8.5421,-172.5159,28.99,71,39,1.06,TK,1682308843
101,tarawa,1.419,172.984,28.18,80,62,6.96,KI,1682308843
102,sterling,39.0062,-77.4286,9.53,56,40,2.57,US,1682308844
103,manati,18.4275,-66.4921,24.37,94,68,2.34,PR,1682308844
104,vilyuchinsk,52.9306,158.4028,5.15,74,98,8.53,RU,1682308844
105,ascension,30.2169,-90.9001,18.33,72,0,3.6,US,1682308845
106,tazovsky,67.4667,78.7,0.27,98,100,8.44,RU,1682308845
107,blackmans bay,-43.0167,147.3167,21.07,47,2,0.92,AU,1682308845
108,kudahuvadhoo,2.6708,72.8944,29.44,67,100,2.62,MV,1682308846
109,lubana,56.9,26.7167,9.96,69,5,3.6,LV,1682308846
110,yarmouth,41.7057,-70.2286,11.19,95,100,4.12,US,1682308846
111,mount pearl,47.5166,-52.7813,2.47,95,100,3.13,CA,1682308846
112,sao joao da barra,-21.6403,-41.0511,19.67,84,0,3.73,BR,1682308847
113,queenstown,-31.8976,26.8753,16.3,49,100,2.68,ZA,1682308847
114,stanley,54.868,-1.6985,4.01,87,75,5.66,GB,1682308847
115,hawaiian paradise park,19.5933,-154.9731,23.91,91,95,3.2,US,1682308847
116,alofi,-19.0595,-169.9187,25.64,66,9,5.09,NU,1682308847
117,magalia,39.8121,-121.5783,16.35,64,32,2.73,US,1682308847
118,san matias,-16.3667,-58.4,22.53,88,48,0.72,BO,1682308847
119,juneau,58.3019,-134.4197,7.45,100,100,1.77,US,1682308848
120,margaret river,-33.95,115.0667,14.31,64,79,7.5,AU,1682308848
121,alesund,62.4723,6.1549,3.84,87,75,10.29,NO,1682308848
122,ore,6.7457,4.8775,24.14,94,100,0.16,NG,1682308848
123,funafuti,-8.5243,179.1942,28.96,71,73,0.93,TV,1682308848
124,khovd,48.0056,91.6419,5.93,30,100,2.05,MN,1682308849
125,floro,61.5996,5.0328,4.02,70,75,5.66,NO,1682308849
126,kone,-21.0595,164.8658,26.36,74,76,4.14,NC,1682308849
127,la ronge,55.1001,-105.2842,1.41,71,98,4.63,CA,1682308849
128,east ballina,-28.8667,153.5833,21.0,63,74,6.9,AU,1682308849
129,hamilton,39.1834,-84.5333,4.87,74,66,1.3,US,1682308809
130,tweed heads,-28.1817,153.547,25.08,72,75,7.72,AU,1682308850
131,carutapera,-1.195,-46.02,23.77,94,99,1.98,BR,1682308850
132,manokwari,-0.8667,134.0833,28.2,71,10,1.81,ID,1682308850
133,port saint john's,-31.6229,29.5448,19.82,58,98,2.62,ZA,1682308850
134,carnarvon,-24.8667,113.6333,22.64,67,100,7.9,AU,1682308850
135,cruzeiro do sul,-29.5128,-51.9853,18.07,89,90,1.1,BR,1682308851
136,mao,39.8885,4.2658,15.31,94,0,2.57,ES,1682308851
137,baardheere,2.3446,42.2764,28.03,71,100,1.63,SO,1682308851
138,kavaratti,10.5669,72.642,28.83,71,96,5.48,IN,1682308851
139,baraki barak,33.9675,68.9486,17.05,23,3,0.45,AF,1682308852
140,zorritos,-3.6805,-80.6782,26.08,79,100,3.28,PE,1682308852
141,quellon,-43.1167,-73.6167,8.09,90,1,1.55,CL,1682308852
142,vorkuta,67.5,64.0,-8.73,94,96,4.33,RU,1682308852
143,hadibu,12.65,54.0333,28.08,68,99,1.71,YE,1682308853
144,kalur kot,32.1564,71.2594,30.71,14,0,2.08,PK,1682308853
145,hobyo,5.3505,48.5268,28.81,73,98,2.86,SO,1682308853
146,edgewater,28.9889,-80.9023,22.83,79,50,4.23,US,1682308853
147,calama,-22.4667,-68.9333,11.27,76,0,2.06,CL,1682308369
148,bredasdorp,-34.5322,20.0403,18.01,89,100,2.59,ZA,1682308853
149,kerikeri,-35.2268,173.9474,17.73,65,1,2.68,NZ,1682308854
150,salyan,39.5936,48.9805,16.03,59,38,2.39,AZ,1682308854
151,capim grosso,-11.3811,-40.0128,19.8,97,34,2.99,BR,1682308672
152,phan thiet,10.9333,108.1,33.37,50,81,5.49,VN,1682308854
153,lompoc,34.6391,-120.4579,13.3,77,33,13.41,US,1682308855
154,pachelma,53.2443,43.3521,12.03,58,94,1.85,RU,1682308855
155,saint-pierre,-21.3393,55.4781,26.43,65,0,2.57,RE,1682308855
156,vila franca do campo,37.7167,-25.4333,18.23,86,100,9.56,PT,1682308855
157,almyros,39.1822,22.7594,12.39,100,20,2.06,GR,1682308855
158,punta arenas,-53.15,-70.9167,5.62,81,100,2.04,CL,1682308856
159,ust-tsilma,65.441,52.1498,-4.85,85,24,3.48,RU,1682308856
160,oranjemund,-28.55,16.4333,14.31,89,99,2.19,NA,1682308815
161,polyarnyy,69.1989,33.4478,-4.55,85,17,4.57,RU,1682308856
162,benque viejo el carmen,17.075,-89.1392,22.02,82,83,1.74,BZ,1682308857
163,tiksi,71.6872,128.8694,-6.02,86,35,2.9,RU,1682308857
164,sarichioi,44.95,28.85,6.12,87,45,0.0,RO,1682308857
165,seaside,36.6111,-121.8516,12.62,87,43,2.24,US,1682308857
166,sisimiut,66.9395,-53.6735,-0.22,99,100,1.45,GL,1682308858
167,kamina,-8.7386,24.9906,17.18,96,99,0.94,CD,1682308858
168,tlalixtac de cabrera,17.0667,-96.65,18.99,76,95,1.44,MX,1682308858
169,portland,45.5234,-122.6762,10.93,77,100,3.13,US,1682308615
170,tamanrasset,22.785,5.5228,18.95,14,0,2.57,DZ,1682308664
171,constantia,44.1833,28.65,5.38,78,2,2.21,RO,1682308859
172,new norfolk,-42.7826,147.0587,21.72,36,1,1.48,AU,1682308859
173,dalandzadgad,43.5708,104.425,9.0,52,100,5.18,MN,1682308859
174,hithadhoo,-0.6,73.0833,29.11,70,100,2.61,MV,1682308860
175,moss bluff,30.3027,-93.1907,14.97,71,100,4.63,US,1682308860
176,nadi,-17.8,177.4167,27.39,74,54,1.29,FJ,1682308861
177,vernon,50.2581,-119.2691,8.75,81,100,2.57,CA,1682308738
178,dryden,49.7833,-92.7503,-6.94,98,57,1.22,CA,1682308861
179,famagusta,35.125,33.95,16.16,70,0,1.73,CY,1682308835
180,megion,61.0296,76.1136,2.01,88,100,8.92,RU,1682308862
181,muynoq,43.7683,59.0214,20.14,37,13,6.98,UZ,1682308862
182,falmouth,50.1544,-5.0711,9.5,93,26,3.6,GB,1682308571
183,promissao,-21.5367,-49.8581,18.23,71,0,3.72,BR,1682308863
184,labrador city,52.9463,-66.9114,-0.16,97,100,1.52,CA,1682308863
185,vadso,70.0744,29.7487,-3.51,80,20,3.6,NO,1682308863
186,newman,37.3138,-121.0208,19.02,74,4,3.47,US,1682308864
187,badger,64.8,-147.5333,-7.49,59,100,6.17,US,1682308864
188,mossel bay,-34.1831,22.146,18.6,83,100,0.45,ZA,1682308864
189,taroa,8.7058,171.2275,27.73,80,67,8.41,MH,1682308865
190,kralendijk,12.15,-68.2667,26.15,81,32,2.97,BQ,1682308865
191,lihue,21.9789,-159.3672,25.58,89,100,4.12,US,1682308865
192,buala,-8.145,159.5921,29.43,72,36,1.89,SB,1682308866
193,kamloops,50.6665,-120.3192,9.3,85,100,0.45,CA,1682308866
194,monteagudo,-19.8167,-63.9833,17.02,79,100,0.09,BO,1682308866
195,uttar char fasson,22.2332,90.7132,29.71,48,2,1.48,BD,1682308866
196,ust-nera,64.5667,143.2,-3.49,91,100,3.68,RU,1682308866
197,mhamid,29.82,-5.72,23.34,28,37,3.89,MA,1682308867
198,walvis bay,-22.9575,14.5053,17.27,72,90,3.19,NA,1682308867
199,coquimbo,-29.9533,-71.3436,15.67,86,12,0.97,CL,1682308867
200,dudinka,69.4058,86.1778,1.46,81,51,6.16,RU,1682308868
201,aljezur,37.3191,-8.8033,12.94,90,2,3.49,PT,1682308868
202,malvan,16.0667,73.4667,29.18,60,6,4.31,IN,1682308869
203,bohl-iggelheim,49.3806,8.3039,10.92,79,100,3.09,DE,1682308869
204,remire-montjoly,4.9167,-52.2667,24.02,100,100,0.0,GF,1682308869
205,piacabucu,-10.4056,-36.4344,24.94,78,24,2.78,BR,1682308869
206,kodinsk,58.6881,99.1844,5.84,68,100,4.18,RU,1682308870
207,tulum,20.2167,-87.4667,25.36,75,55,3.96,MX,1682308870
208,odobesti,45.7667,27.05,7.97,81,9,2.01,RO,1682308870
209,san patricio,28.017,-97.5169,17.91,87,100,6.2,US,1682308870
210,lys'va,58.1086,57.8053,6.63,69,100,1.93,RU,1682308870
211,kegen,43.0197,79.2203,13.48,26,11,1.31,KZ,1682308870
212,georgetown,5.4112,100.3354,31.96,66,20,2.06,MY,1682308805
213,kashgar,39.4547,75.9797,18.45,22,6,2.47,CN,1682308871
214,batticaloa,7.7102,81.6924,30.21,66,92,3.12,LK,1682308871
215,florida,28.7505,-82.5001,22.17,77,0,3.6,US,1682308872
216,talodi,10.6325,30.3797,28.89,48,91,3.21,SD,1682308872
217,san luis de la loma,17.2706,-100.8939,25.58,83,89,1.8,MX,1682308872
218,manacapuru,-3.2997,-60.6206,22.9,86,95,0.67,BR,1682308872
219,rio grande,-32.035,-52.0986,19.78,89,100,4.77,BR,1682308872
220,dunedin,-45.8742,170.5036,11.56,10,12,8.96,NZ,1682308872
221,la passe,45.5549,-0.8967,11.1,83,66,4.13,FR,1682308873
222,santa terezinha,-29.9002,-50.0904,20.03,87,100,5.31,BR,1682308873
223,caucete,-31.6518,-68.2811,15.35,71,100,3.38,AR,1682308873
224,berezovyy,51.6667,135.7,6.03,51,100,5.67,RU,1682308873
225,ulladulla,-35.35,150.4667,23.2,66,57,3.21,AU,1682308427
226,ilulissat,69.2167,-51.1,0.01,100,100,2.57,GL,1682308874
227,trincomalee,8.5711,81.2335,28.81,76,94,3.14,LK,1682308874
228,tambopata,-12.7333,-69.1833,20.54,89,16,1.03,PE,1682308874
229,horta,38.5333,-28.6333,17.23,97,100,7.6,PT,1682308874
230,okhotsk,59.3833,143.3,2.73,59,97,2.31,RU,1682308875
231,odessa,46.4775,30.7326,10.27,65,59,1.58,UA,1682308875
232,tura,25.5198,90.2201,30.11,36,7,0.95,IN,1682308875
233,praia da vitoria,38.7333,-27.0667,17.31,85,100,10.64,PT,1682308876
234,aioun,16.6614,-9.6149,27.26,15,0,4.61,MR,1682308877
235,bikenibeu village,1.3673,173.1241,28.06,80,53,7.0,KI,1682308877
236,santa ana,33.7456,-117.8678,18.81,84,75,3.6,US,1682308877
237,patnongon,10.9132,121.9937,30.08,66,79,4.36,PH,1682308877
238,arraial do cabo,-22.9661,-42.0278,22.05,69,0,1.69,BR,1682308878
239,huaihua,27.5494,109.9592,7.99,93,100,2.1,CN,1682308878
240,pimenta bueno,-11.6725,-61.1936,21.73,98,56,1.17,BR,1682308878
241,egilsstadir,65.2653,-14.3948,-2.0,75,25,1.67,IS,1682308878
242,port moresby,-9.4431,147.1797,28.9,73,97,2.71,PG,1682308813
243,cidade velha,14.9167,-23.6167,21.9,77,3,6.15,CV,1682308879
244,the pas,53.8251,-101.2541,-2.26,86,16,2.68,CA,1682308879
245,muroto-misakicho,33.2833,134.15,16.06,44,100,8.33,JP,1682308833
246,durgapur,23.4833,87.3167,27.16,57,40,3.6,IN,1682308717
247,kindu,-2.95,25.95,19.77,100,100,0.73,CD,1682308879
248,st. john's,47.5649,-52.7093,2.76,95,100,9.39,CA,1682308880
249,vryburg,-26.9566,24.7284,12.67,27,22,1.31,ZA,1682308880
250,montepuez,-13.1256,38.9997,18.84,96,3,1.33,MZ,1682308880
251,nova sintra,14.8667,-24.7167,20.04,75,3,11.47,CV,1682308880
252,colonia,50.9333,6.95,9.98,74,75,5.14,DE,1682308822
253,tsengel,49.4783,100.8894,4.82,28,40,1.2,MN,1682308882
254,iquique,-20.2208,-70.1431,20.19,79,6,1.85,CL,1682308882
255,anadyr,64.75,177.4833,-4.72,79,40,12.0,RU,1682308882
256,obo,5.3998,26.4869,18.62,96,66,1.69,CF,1682308882
257,bobrov,51.0961,40.0333,9.82,85,99,2.13,RU,1682308882
258,vilyuysk,63.7553,121.6247,-0.18,88,21,4.47,RU,1682308883
259,laguna,38.421,-121.4238,20.9,64,0,4.63,US,1682308883
260,viqueque,-8.8673,126.3658,29.55,66,24,2.88,TL,1682308883
261,kirakira,-10.4544,161.9205,29.16,75,29,2.91,SB,1682308883
262,n'zeto,-7.2312,12.8666,25.47,93,100,3.54,AO,1682308884
263,mermoz boabab,14.7065,-17.4758,19.31,88,4,7.53,SN,1682308884
264,mount gambier,-37.8333,140.7667,23.46,36,0,2.76,AU,1682308884
265,ventspils,57.3894,21.5606,7.96,93,100,1.54,LV,1682308884
266,port lincoln,-34.7333,135.8667,22.6,50,0,4.75,AU,1682308885
267,cabedelo,-6.9811,-34.8339,25.27,84,99,4.31,BR,1682308885
268,marshfield,44.6689,-90.1718,1.38,84,25,1.87,US,1682308886
269,taoudenni,22.6783,-3.9836,26.95,20,0,4.11,ML,1682308886
270,beeville,28.4008,-97.7483,16.66,82,100,3.09,US,1682308886
271,richards bay,-28.783,32.0377,17.67,87,67,2.01,ZA,1682308886
272,palikir - national government center,6.9248,158.1611,26.69,82,89,6.82,FM,1682308886
273,codrington,-38.2667,141.9667,23.31,40,0,3.31,AU,1682308887
274,kudat,6.8837,116.8477,31.3,61,71,4.81,MY,1682308887
275,aksu,41.1231,80.2644,17.41,14,8,2.53,CN,1682308598
276,ocampo,21.65,-101.5,17.27,14,95,3.1,MX,1682308887
277,island harbour,50.724,-1.2758,6.66,92,8,0.45,GB,1682308888
278,fortuna,40.5982,-124.1573,11.19,83,100,1.34,US,1682308888
279,tindouf,27.6711,-8.1474,22.35,26,1,2.46,DZ,1682308672
280,saipan,15.1355,145.701,29.25,100,91,4.92,MP,1682308888
281,hirara,24.8,125.2833,26.15,69,40,4.63,JP,1682308765
282,playa del ingles,27.7567,-15.5787,17.86,82,14,3.39,ES,1682308888
283,borogontsy,62.6683,131.1683,-0.31,83,100,4.66,RU,1682308889
284,lospalos,-8.5186,127.0025,26.34,77,29,5.08,TL,1682308889
285,daru,-9.0763,143.2092,27.89,81,100,1.95,PG,1682308889
286,nikolayevsk-on-amure,53.1406,140.73,4.54,55,43,7.04,RU,1682308890
287,kramfors,62.9316,17.7765,-1.12,93,97,3.45,SE,1682308890
288,fedorovskiy,45.0972,40.9517,11.12,82,100,4.26,RU,1682308890
289,hanceville,34.0607,-86.7675,10.23,56,100,2.49,US,1682308890
290,haicheng,40.8516,122.7475,18.64,10,1,1.48,CN,1682308891
291,togur,58.3631,82.8265,6.25,86,100,5.59,RU,1682308891
292,maceio,-9.6658,-35.7353,25.67,81,100,3.88,BR,1682308891
293,kedrovyy,56.1667,91.8167,9.37,52,98,4.03,RU,1682308891
294,jiazi,22.8779,116.067,24.23,81,100,3.62,CN,1682308892
295,san antonio de pale,-1.4014,5.6325,27.49,78,96,2.86,GQ,1682308892
296,mount pleasant,32.7941,-79.8626,15.0,87,0,0.0,US,1682308892
297,northam,51.0333,-4.2167,8.12,95,16,3.11,GB,1682308892
298,belvedere marittimo,39.6179,15.8617,12.29,68,53,0.92,IT,1682308892
299,brisas de zicatela,15.8369,-97.0419,26.92,81,83,3.65,MX,1682308893
300,cairo,30.0626,31.2497,17.42,88,0,3.09,EG,1682308717
301,kolonia,50.9333,6.95,9.98,74,75,5.14,DE,1682308822
302,fale old settlement,-9.3852,-171.2468,28.88,72,17,1.21,TK,1682308893
303,gladstone,-23.85,151.25,28.21,44,40,9.26,AU,1682308893
304,hounde,11.5,-3.5167,28.59,47,36,3.27,BF,1682308893
305,lieksa,63.3167,30.0167,1.43,99,100,2.75,FI,1682308894
306,east london,-33.0153,27.9116,20.39,53,99,1.87,ZA,1682308894
307,road town,18.4167,-64.6167,26.07,75,70,4.48,VG,1682308894
308,gross kreutz,52.4,12.7833,12.81,82,89,3.95,DE,1682308895
309,as sulayyil,20.4607,45.5779,26.37,47,1,3.35,SA,1682308895
310,cabo san lucas,22.8909,-109.9124,24.73,65,94,5.76,MX,1682308895
311,arica,-18.475,-70.3042,19.78,84,1,0.6,CL,1682308864
312,nguigmi,14.2495,13.1092,27.88,26,28,4.19,NE,1682308895
313,pont rouge,48.8833,-72.0825,5.97,99,100,0.88,CA,1682308895
314,nagqu,31.5,92.0,-1.54,21,98,4.22,CN,1682308896
315,bamboo flat,11.7,92.7167,31.29,61,27,4.05,IN,1682308896
316,brookings,44.3114,-96.7984,1.7,65,33,2.23,US,1682308896
317,nhamunda,-2.1861,-56.7131,23.45,94,99,0.97,BR,1682308896
318,ancud,-41.8697,-73.8203,7.47,88,0,1.31,CL,1682308896
319,grajewo,53.6473,22.4554,10.89,74,63,4.68,PL,1682308897
320,adrar,20.5022,-10.0711,23.73,23,0,3.57,MR,1682308897
321,le moule,16.3332,-61.3473,24.02,74,78,1.26,GP,1682308897
322,klyavlino,54.2649,52.0267,11.7,52,6,2.5,RU,1682308897
323,marrakesh,31.6315,-8.0083,18.04,59,0,1.03,MA,1682308687
324,hammerfest,70.6634,23.6821,-1.75,93,75,2.06,NO,1682308897
325,tortoli,39.9256,9.6572,14.34,73,66,2.41,IT,1682308898
326,fort-shevchenko,44.5086,50.263,17.6,45,100,12.68,KZ,1682308898
327,rongelap,11.1635,166.8941,27.06,81,57,10.03,MH,1682308898
328,myski,53.709,87.8014,10.29,56,100,1.47,RU,1682308714
329,forbes,-33.3833,148.0167,26.07,34,0,2.44,AU,1682308899
330,lorengau,-2.0226,147.2712,29.75,72,88,4.38,PG,1682308900
331,sola,-13.8833,167.55,27.78,74,89,6.24,VU,1682308900
332,kota,25.1833,75.8333,29.61,24,0,2.11,IN,1682308417
333,mitu,1.1983,-70.1733,22.44,99,100,1.2,CO,1682308900
334,gizo,-8.103,156.8419,29.19,72,79,0.72,SB,1682308901
335,kununurra,-15.7667,128.7333,31.99,43,2,3.6,AU,1682308901
336,yichang,30.7144,111.2847,9.79,83,100,0.57,CN,1682308720
337,smithers,54.7804,-127.1743,4.75,95,100,1.14,CA,1682308901
338,bakal,54.9417,58.8083,4.75,72,100,1.53,RU,1682308901
339,tariba,7.8188,-72.2243,19.34,97,90,1.01,VE,1682308902
340,una,20.8167,71.0333,31.31,38,81,3.8,IN,1682308902
341,mangrol,21.1167,70.1167,28.6,58,96,4.07,IN,1682308620
342,kingston,17.997,-76.7936,23.47,91,0,1.57,JM,1682308902
343,port elizabeth,-33.918,25.5701,18.51,96,100,2.45,ZA,1682308903
344,kalabo,-14.97,22.6814,19.96,70,100,2.03,ZM,1682308903
345,fort mcmurray,56.7268,-111.381,6.18,63,100,0.74,CA,1682308903
346,caburan,5.9181,125.6411,29.43,71,58,3.83,PH,1682308903
347,huilong,31.8111,121.655,11.74,78,100,6.46,CN,1682308785
348,jinxiang,27.4327,120.6062,16.84,85,98,3.27,CN,1682308904
349,belle fourche,44.6714,-103.8522,5.24,52,16,3.48,US,1682308904
350,sechura,-5.5569,-80.8222,26.57,75,100,5.66,PE,1682308904
351,coronel suarez,-37.4547,-61.9334,10.6,80,19,1.42,AR,1682308904
352,dar chioukh,34.8964,3.4854,15.54,52,95,2.93,DZ,1682308905
353,aldan,58.6031,125.3894,-2.36,65,100,6.47,RU,1682308905
354,imbituba,-28.24,-48.6703,22.14,88,59,3.04,BR,1682308905
355,cameron,26.117,-97.5169,20.98,78,100,7.72,US,1682308905
356,andratx,39.5755,2.4202,14.97,86,69,2.31,ES,1682308905
357,xiuyan,40.2928,123.2744,17.06,13,45,2.63,CN,1682308905
358,rampachodavaram,17.45,81.7667,30.95,59,39,2.45,IN,1682308906
359,saldanha,-33.0117,17.9442,16.68,97,100,4.28,ZA,1682308906
360,san pedro de ycuamandiyu,-24.0917,-57.0764,17.81,96,0,1.08,PY,1682308906
361,clearlake,38.9582,-122.6264,15.13,84,17,2.6,US,1682308906
362,midvagur,62.0511,-7.1939,2.46,55,100,7.2,FO,1682308907
363,whitehorse,60.7161,-135.0538,3.94,99,100,1.17,CA,1682308907
364,serdar,38.9764,56.2757,22.9,29,91,6.31,TM,1682308907
365,carlos chagas,-17.7031,-40.7664,20.65,84,91,2.32,BR,1682308908
366,kholmsk,47.0511,142.0569,4.58,72,90,4.88,RU,1682308908
367,nuuk,64.1835,-51.7216,0.49,100,100,1.54,GL,1682308908
368,mersa matruh,31.3525,27.2453,16.89,84,0,4.56,EG,1682308908
369,ziro,27.6333,93.8333,13.41,71,88,0.39,IN,1682308739
370,rikaze,29.25,88.8833,6.95,15,67,0.34,CN,1682308909
371,umm kaddadah,13.6017,26.6876,25.37,49,69,4.1,SD,1682308909
372,saudarkrokur,65.7461,-19.6394,0.67,67,57,0.27,IS,1682308909
373,gaspe,48.8334,-64.4819,0.36,96,6,0.2,CA,1682308909
374,i-n-salah,27.1935,2.4607,23.53,18,41,7.32,DZ,1682308910
375,sur,22.5667,59.5289,29.61,57,100,1.68,OM,1682308910
376,atlantic beach,30.3344,-81.3987,20.99,79,19,0.89,US,1682308910
377,mozhga,56.4447,52.2276,11.48,61,96,3.61,RU,1682308910
378,revelstoke,50.9832,-118.2023,6.54,100,100,0.74,CA,1682308911
379,vorgashor,67.5833,63.95,-9.03,94,94,4.4,RU,1682308911
380,panevezys,55.7333,24.35,10.32,74,42,5.49,LT,1682308911
381,oamaru,-45.0784,170.9801,12.43,52,51,9.9,NZ,1682308867
382,el carmen de bolivar,9.7174,-75.1202,23.27,86,2,1.91,CO,1682308911
383,pustoshka,56.3355,29.369,10.93,70,94,3.05,RU,1682308911
384,oum hadjer,13.2954,19.6966,32.25,35,99,4.0,TD,1682308912
385,broken hill,-31.95,141.4333,24.88,33,0,5.1,AU,1682308631
386,ugoofaaru,5.6667,73.0,29.49,69,100,5.25,MV,1682308912
387,karlskoga,59.3267,14.5239,3.62,95,91,0.28,SE,1682308912
388,woodward,36.4337,-99.3904,8.57,43,0,4.12,US,1682308912
389,tegueste,28.5167,-16.3167,15.6,88,40,6.17,ES,1682308913
390,cartagena del chaira,1.3349,-74.8429,21.69,99,100,0.42,CO,1682308913
391,crane,31.3974,-102.3501,8.11,82,100,5.87,US,1682308913
392,ca mau,9.1769,105.15,35.11,43,10,3.93,VN,1682308913
393,siocon,7.7061,122.1353,30.22,71,100,2.78,PH,1682308913
394,pionerskiy,54.9508,20.2275,8.91,98,99,2.73,RU,1682308914
395,santiago de cao,-7.9589,-79.2392,24.28,79,100,2.86,PE,1682308914
396,greater sudbury,46.49,-80.99,2.81,94,99,0.89,CA,1682308914
397,mamuju,-2.6748,118.8885,29.55,76,32,2.07,ID,1682308914
398,arkhangel'sk,64.5401,40.5433,-0.94,58,40,1.0,RU,1682308914
399,caleta de carquin,-11.0925,-77.6267,23.85,79,46,3.64,PE,1682308915
400,cascavel,-24.9558,-53.4553,15.01,90,11,2.97,BR,1682308915
401,vodnyy,63.5046,53.4095,-2.83,81,94,2.3,RU,1682308915
402,celestun,20.8667,-90.4,28.34,62,12,6.09,MX,1682308915
403,xihe,31.6864,113.4659,10.13,86,100,5.2,CN,1682308915
404,lamu,-2.2717,40.902,26.12,82,99,1.93,KE,1682308915
405,hasaki,35.7333,140.8333,18.45,41,100,5.45,JP,1682308915
406,anna regina,7.2644,-58.5077,24.46,89,100,0.54,GY,1682308916
407,puerto deseado,-47.7503,-65.8938,12.07,64,21,7.31,AR,1682308916
408,bac lieu,9.285,105.7244,32.72,55,45,5.74,VN,1682308916
409,mwene-ditu,-7.0,23.45,18.35,98,100,0.91,CD,1682308916
410,kondagaon,19.6,81.6667,30.14,40,6,2.75,IN,1682308916
411,sao tome,0.3365,6.7273,27.0,81,100,2.79,ST,1682308917
412,alice springs,-23.7,133.8833,26.75,26,12,5.66,AU,1682308811
413,puerto baquerizo moreno,-0.9,-89.6,25.86,80,31,3.82,EC,1682308917
414,pirallahi,40.4723,50.333,13.08,72,77,3.93,AZ,1682308917
415,ivanava,52.1451,25.5365,7.85,79,9,3.45,BY,1682308918
416,geneina,13.45,22.45,25.67,58,95,5.15,SD,1682308918
417,catmon,10.7167,124.0,30.6,64,57,1.95,PH,1682308918
418,dongcun,36.7767,121.1597,16.35,20,100,3.95,CN,1682308879
419,kupang,-10.1667,123.5833,31.32,70,75,4.63,ID,1682308847
420,bonthe,7.5264,-12.505,27.07,86,13,1.79,SL,1682308918
421,batamshinskiy,50.5594,58.2747,10.79,56,0,2.8,KZ,1682308863
422,naivasha,-0.7167,36.4359,16.17,93,97,1.24,KE,1682308919
423,ta`u,-14.2336,-169.5144,27.13,76,25,2.84,AS,1682308919
424,vicente camalote,18.5139,-96.525,29.23,64,84,0.88,MX,1682308919
425,cannonvale,-20.2833,148.7,23.66,70,100,9.35,AU,1682308920
426,horsham,51.064,-0.3272,7.84,89,40,2.57,GB,1682308920
427,tuy hoa,13.0833,109.3,31.83,57,31,3.82,VN,1682308769
428,banda aceh,5.5577,95.3222,30.44,66,80,1.91,ID,1682308920
429,isola di capo rizzuto,38.96,17.0933,13.7,69,2,4.35,IT,1682308921
430,jeju city,33.5097,126.5219,11.96,82,100,5.14,KR,1682308734
431,al ghayzah,16.2079,52.176,28.3,68,13,2.3,YE,1682308921
432,port augusta,-32.5,137.7667,28.12,25,0,4.17,AU,1682308920
433,luena,-11.7833,19.9167,16.36,93,100,0.38,AO,1682308921
434,tilcara,-23.5776,-65.3509,5.09,66,48,0.47,AR,1682308922
435,borkum,53.5809,6.6915,10.53,96,99,4.14,DE,1682308922
436,lethbridge,49.7,-112.8186,7.58,64,91,3.83,CA,1682308922
437,carinhanha,-14.3047,-43.765,22.15,73,80,3.46,BR,1682308922
438,gaigeturi,33.4644,126.3183,12.65,76,100,8.39,KR,1682308922
439,galle,6.0367,80.217,29.26,72,100,1.35,LK,1682308718
440,monitos,8.25,-76.05,24.3,88,89,1.56,CO,1682308923
441,touros,-5.1989,-35.4608,24.66,87,84,4.01,BR,1682308672
442,papao,-17.75,-149.55,26.82,89,100,4.79,PF,1682308923
443,luderitz,-26.6481,15.1594,16.96,54,100,1.99,NA,1682308924
444,sitka,57.0531,-135.33,5.58,95,100,1.29,US,1682308924
445,kourou,5.1552,-52.6478,24.03,91,94,0.6,GF,1682308924
446,fortaleza,-3.7227,-38.5247,26.07,83,0,2.06,BR,1682308925
447,anori,-3.7728,-61.6442,21.86,95,87,0.31,BR,1682308925
448,iskateley,67.6803,53.1512,-6.07,90,22,7.25,RU,1682308925
449,tamandare,-8.7597,-35.1047,24.67,86,99,2.98,BR,1682308926
450,bom jesus,-9.0744,-44.3586,22.49,73,69,0.78,BR,1682308931
451,la'ie,21.6477,-157.9253,26.67,71,99,1.25,US,1682308932
452,duyun,26.2667,107.5167,7.6,94,100,2.2,CN,1682308933
453,the dalles,45.5946,-121.1787,11.44,73,100,5.81,US,1682308935
454,bela,25.9333,81.9833,33.91,16,1,4.47,IN,1682308935
455,tazacorte,28.629,-17.9293,17.54,86,75,4.63,ES,1682308935
456,kinablangan,7.6947,126.5503,29.34,71,61,2.91,PH,1682308935
457,wenshang,35.7275,116.4961,13.44,62,87,2.64,CN,1682308935
458,quesnel,52.9999,-122.5029,7.28,93,100,1.54,CA,1682308938
459,klyuchi,52.2667,79.1667,13.69,44,21,9.1,RU,1682308939
460,velikiy ustyug,60.7644,46.3106,4.64,84,100,2.41,RU,1682308939
461,santa cruz,-17.8,-63.1667,19.55,74,46,1.82,BO,1682308941
462,itoman,26.1247,127.6694,26.01,61,20,5.66,JP,1682308942
463,akankpa,5.1264,8.1898,23.62,91,88,0.7,NG,1682308942
464,kiunga,-6.1219,141.2906,29.97,62,99,1.54,PG,1682308942
465,boa vista,2.8197,-60.6733,23.99,94,20,0.51,BR,1682308943
466,port pirie,-33.1833,138.0167,26.34,32,0,2.39,AU,1682308943
467,ruthin,53.1137,-3.3178,6.84,91,99,2.05,GB,1682308943
468,kavieng,-2.5744,150.7967,29.37,70,39,3.1,PG,1682308943
469,mokhsogollokh,61.4681,128.9203,0.27,81,93,5.85,RU,1682308943
470,erattupetta,9.7,76.7833,32.4,53,96,0.69,IN,1682308696
471,shagonar,51.5333,92.8,6.17,42,100,1.47,RU,1682308944
472,forest lake,45.2789,-92.9852,3.42,73,86,1.09,US,1682308944
473,balqash,46.8481,74.995,14.33,41,20,3.0,KZ,1682308944
474,timimoun,29.2639,0.231,23.25,15,1,5.93,DZ,1682308944
475,hotan,37.0997,79.9269,20.63,10,0,1.94,CN,1682308944
476,cromer,52.9312,1.2989,8.0,84,100,10.05,GB,1682308945
477,talcahuano,-36.7167,-73.1167,11.68,89,0,1.47,CL,1682308946
478,maintirano,-18.0667,44.0167,22.86,89,18,2.4,MG,1682308946
479,murun-kuren,49.6342,100.1625,4.82,30,29,2.23,MN,1682308946
480,opelousas,30.5335,-92.0815,15.94,72,100,3.09,US,1682308946
481,muar,2.0442,102.5689,32.24,64,100,1.58,MY,1682308946
482,butembo,0.15,29.2833,14.35,99,100,0.6,CD,1682308947
483,fada n'gourma,12.0622,0.3578,29.07,55,21,5.75,BF,1682308947
484,urucara,-2.5364,-57.76,23.41,95,100,1.14,BR,1682308947
485,guayaramerin,-10.8368,-65.3614,23.62,92,100,0.81,BO,1682308948
486,viitasaari,63.0667,25.8667,2.8,97,100,3.56,FI,1682308948
487,kodiak,57.79,-152.4072,0.05,63,92,7.26,US,1682308948
488,long beach,33.767,-118.1892,17.71,89,100,3.09,US,1682308949
489,tolanaro,-25.0319,46.9987,21.51,87,85,2.65,MG,1682308949
490,temple,31.0982,-97.3428,12.66,83,100,3.6,US,1682308949
491,hastings,50.8552,0.5729,8.27,92,15,4.78,GB,1682308950
492,balkanabat,39.5108,54.3671,24.86,25,100,7.02,TM,1682308950
493,shizunai-furukawacho,42.3339,142.3669,6.63,68,64,7.67,JP,1682308950
494,tafresh,34.692,50.013,15.41,31,81,0.61,IR,1682308951
495,ninghai,29.2892,121.4247,14.55,93,100,3.4,CN,1682308951
496,iquitos,-3.7481,-73.2472,22.66,99,100,1.01,PE,1682308951
497,peniche,39.3558,-9.3811,14.96,95,19,2.64,PT,1682308951
498,sosnovo-ozerskoye,52.5249,111.5418,1.34,19,0,2.07,RU,1682308951
499,yallahs,17.8748,-76.5624,23.79,79,2,2.04,JM,1682308951
500,fereydunshahr,32.941,50.121,10.65,47,56,2.19,IR,1682308951
501,salekhard,66.53,66.6019,-6.91,80,40,7.38,RU,1682308952
502,vrangel',42.7297,133.0839,7.64,44,0,7.76,RU,1682308952
503,moreira sales,-24.0622,-53.0069,17.55,88,54,3.41,BR,1682308953
504,illapel,-31.6308,-71.1653,16.64,78,23,1.0,CL,1682308953
505,yarkovo,57.4028,67.0786,4.47,48,42,6.29,RU,1682308954
506,baykan,38.1627,41.7833,15.32,77,89,0.73,TR,1682308954
507,severo-yeniseyskiy,60.3725,93.0408,3.97,83,100,4.14,RU,1682308954
508,gallup,35.5281,-108.7426,11.12,32,20,0.45,US,1682308954
509,marka,1.7159,44.7717,28.45,75,82,3.08,SO,1682308954
510,kuanda,56.3161,116.0806,-0.8,47,100,4.33,RU,1682308955
511,minas de marcona,-15.2119,-75.1103,17.8,80,0,3.59,PE,1682308955
512,salalah,17.0151,54.0924,27.28,72,29,2.02,OM,1682308955
513,katsuura,35.1333,140.3,11.54,64,100,6.15,JP,1682308956
514,selfoss,63.9331,-20.9971,1.14,89,100,1.78,IS,1682308957
515,lima duarte,-21.8425,-43.7931,15.51,96,63,0.36,BR,1682308957
516,madalena,41.2162,-8.3345,15.26,96,92,0.75,PT,1682308957
517,zhangye,38.9342,100.4517,11.95,41,100,6.64,CN,1682308958
518,kyshtovka,56.555,76.6271,10.64,74,100,4.16,RU,1682308958
519,tra mhor,52.1624,-7.1524,7.83,81,81,2.68,IE,1682308958
520,soe,-9.8607,124.284,25.23,69,60,3.49,ID,1682308958
521,mont-dore,-22.2833,166.5833,26.99,78,58,3.96,NC,1682308959
522,pisco,-13.7,-76.2167,21.12,85,9,1.15,PE,1682308959
523,poso,-1.3959,120.7524,30.8,66,23,2.97,ID,1682308744
524,lerwick,60.1545,-1.1494,3.0,67,95,12.55,GB,1682308959
525,xinyu,27.8043,114.9334,12.06,89,100,2.81,CN,1682308959
526,buon ma thuot,12.6667,108.05,35.21,27,60,1.54,VN,1682308757
527,cestos city,5.46,-9.5828,26.69,85,22,2.93,LR,1682308960
528,teluk nibung,3.001,99.8164,29.62,77,85,2.31,ID,1682308960
529,pyetrykaw,52.1289,28.4921,10.17,74,93,2.44,BY,1682308960
530,ola,59.5833,151.2833,2.37,73,100,5.9,RU,1682308960
531,turinsk,58.0458,63.696,3.6,53,54,4.88,RU,1682308960
532,el dorado,38.7666,-120.5177,14.36,61,5,1.34,US,1682308961
533,zhelezinka,53.54,75.3072,11.43,55,68,5.34,KZ,1682308961
534,tlaltizapan,18.6833,-99.1167,29.07,35,45,0.45,MX,1682308961
535,lodja,-3.4833,23.4333,19.26,99,100,1.13,CD,1682308961
536,as samawah,31.332,45.2944,29.19,25,54,2.68,IQ,1682308962
537,geraldton,-28.7667,114.6,19.23,77,75,6.69,AU,1682308962
538,rampur,28.8167,79.0333,22.28,15,100,1.49,IN,1682308807
539,nyurba,63.2842,118.3319,-0.37,83,16,2.54,RU,1682308962
540,sunel,24.3667,75.9667,30.17,25,0,3.33,IN,1682308962
541,holualoa,19.6228,-155.9522,23.77,80,72,1.34,US,1682308963
542,charters towers,-20.1,146.2667,25.82,54,100,6.7,AU,1682308963
543,qoryooley,1.7878,44.53,27.62,77,92,2.23,SO,1682308963
544,rio san juan,19.6439,-70.0763,23.34,78,30,2.31,DO,1682308963
545,uturoa,-16.7333,-151.4333,27.31,78,60,2.72,PF,1682308963
546,vila velha,-20.3297,-40.2925,22.19,84,30,3.08,BR,1682308964
547,bontang,0.1333,117.5,29.57,70,36,3.72,ID,1682308721
548,amahai,-3.3333,128.9167,30.74,65,7,3.39,ID,1682308964
549,ocean city,39.2776,-74.5746,12.22,57,52,3.58,US,1682308964
550,zahedan,29.4963,60.8629,20.95,18,0,2.06,IR,1682308965
551,chonchi,-42.6128,-73.8092,4.51,94,1,0.67,CL,1682308965
552,kenora,49.8167,-94.4337,-5.12,94,90,1.49,CA,1682308965
553,cambridge,43.3601,-80.3127,4.86,86,90,0.45,CA,1682308965
554,mandali,33.7499,45.5541,27.28,31,52,1.42,IQ,1682308966
555,vuktyl,63.8567,57.3094,-3.71,77,9,3.63,RU,1682308966
556,argo,37.6333,22.7333,12.66,80,2,1.2,GR,1682308966
557,knyaze-volkonskoye,48.4642,135.4567,10.19,33,76,9.37,RU,1682308966
